[
  {
    "chain": "Costa Coffee",
    "name": "Costa Coffee",
    "address": "Проспект Республики, 7",
    "district": "Сарыарка",
    "lat": 51.15987327,
    "lng": 71.42872536,
    "source": "2GIS current branch listing",
    "source_id": "70000001019252228",
    "source_url": "https://2gis.kz/astana/firm/70000001019252228"
  },
  {
    "chain": "Costa Coffee",
    "name": "Costa Coffee",
    "address": "ТРЦ Asia Park, проспект Кабанбай батыра, 21",
    "district": "Нура",
    "lat": 51.128155,
    "lng": 71.41148,
    "source": "2GIS current branch listing",
    "source_id": "70000001022723985",
    "source_url": "https://2gis.kz/astana/firm/70000001022723985"
  },
  {
    "chain": "Costa Coffee",
    "name": "Costa Coffee",
    "address": "ТРЦ KeruenCity, шоссе Коргалжын, 1",
    "district": "Нура",
    "lat": "",
    "lng": "",
    "source": "2GIS current branch listing",
    "source_id": "70000001019252130",
    "source_url": "https://2gis.kz/astana/firm/70000001019252130"
  },
  {
    "chain": "Costa Coffee",
    "name": "Costa Coffee",
    "address": "ТРЦ Керуен, улица Достык, 9",
    "district": "Есиль",
    "lat": 51.1281274,
    "lng": 71.4253555,
    "source": "2GIS current branch listing",
    "source_id": "70000001019252025",
    "source_url": "https://2gis.kz/astana/firm/70000001019252025"
  },
  {
    "chain": "Costa Coffee",
    "name": "Costa Coffee",
    "address": "Улица Туркестан, 16",
    "district": "Есиль",
    "lat": "",
    "lng": "",
    "source": "2GIS current branch listing",
    "source_id": "70000001052445446",
    "source_url": "https://2gis.kz/astana/firm/70000001052445446"
  },
  {
    "chain": "Espresso Day",
    "name": "Espresso Day",
    "address": "(адрес не отобразился в 2GIS)",
    "district": "Сарайшык",
    "lat": 51.12075,
    "lng": 71.47647,
    "source": "2GIS snapshot in repository",
    "source_id": "70000001115651184",
    "source_url": "https://2gis.kz/astana/firm/70000001115651184"
  },
  {
    "chain": "Espresso Day",
    "name": "Espresso Day",
    "address": "(адрес не отобразился в 2GIS)",
    "district": "Есильский",
    "lat": 51.11713,
    "lng": 71.42252,
    "source": "2GIS snapshot in repository",
    "source_id": "70000001115776449",
    "source_url": "https://2gis.kz/astana/firm/70000001115776449"
  },
  {
    "chain": "Espresso Day",
    "name": "Espresso Day",
    "address": "Аль-Фараби проспект, 17",
    "district": "Есильский",
    "lat": 51.09451,
    "lng": 71.4496,
    "source": "2GIS snapshot in repository",
    "source_id": "70000001114082223",
    "source_url": "https://2gis.kz/astana/firm/70000001114082223"
  },
  {
    "chain": "Espresso Day",
    "name": "Espresso Day",
    "address": "Аль-Фараби проспект, 35",
    "district": "Есильский",
    "lat": 51.08426,
    "lng": 71.44437,
    "source": "2GIS snapshot in repository",
    "source_id": "70000001091239614",
    "source_url": "https://2gis.kz/astana/firm/70000001091239614"
  },
  {
    "chain": "Espresso Day",
    "name": "Espresso Day",
    "address": "Аль-Фараби проспект, 7",
    "district": "Есильский",
    "lat": 51.09914,
    "lng": 71.45145,
    "source": "2GIS snapshot in repository",
    "source_id": "70000001083233614",
    "source_url": "https://2gis.kz/astana/firm/70000001083233614"
  },
  {
    "chain": "Espresso Day",
    "name": "Espresso Day",
    "address": "Аль-Фараби проспект, 7/2",
    "district": "Есильский",
    "lat": 51.10075,
    "lng": 71.44897,
    "source": "2GIS snapshot in repository",
    "source_id": "70000001114962666",
    "source_url": "https://2gis.kz/astana/firm/70000001114962666"
  },
  {
    "chain": "Espresso Day",
    "name": "Espresso Day",
    "address": "Амангельды Иманова улица, 52",
    "district": "Байконур",
    "lat": 51.16018,
    "lng": 71.46034,
    "source": "2GIS snapshot in repository",
    "source_id": "70000001105387303",
    "source_url": "https://2gis.kz/astana/firm/70000001105387303"
  },
  {
    "chain": "Espresso Day",
    "name": "Espresso Day",
    "address": "БЦ 7 Континент · улица Кенесары, 40",
    "district": "Байконур",
    "lat": 51.16574,
    "lng": 71.43299,
    "source": "2GIS snapshot in repository",
    "source_id": "70000001087418118",
    "source_url": "https://2gis.kz/astana/firm/70000001087418118"
  },
  {
    "chain": "Espresso Day",
    "name": "Espresso Day",
    "address": "БЦ Каскад · Кабанбай батыр проспект, 6/1",
    "district": "Есильский",
    "lat": 51.14637,
    "lng": 71.42352,
    "source": "2GIS snapshot in repository",
    "source_id": "70000001113174318",
    "source_url": "https://2gis.kz/astana/firm/70000001113174318"
  },
  {
    "chain": "Espresso Day",
    "name": "Espresso Day",
    "address": "БЦ Номад · улица Сыганак, 54/2",
    "district": "Есильский",
    "lat": 51.12383,
    "lng": 71.42184,
    "source": "2GIS snapshot in repository",
    "source_id": "70000001106389345",
    "source_url": "https://2gis.kz/astana/firm/70000001106389345"
  },
  {
    "chain": "Espresso Day",
    "name": "Espresso Day",
    "address": "БЦ Нурсаулет-1 · Амангельды Иманова улица, 11",
    "district": "Байконур",
    "lat": 51.16396,
    "lng": 71.43548,
    "source": "2GIS snapshot in repository",
    "source_id": "70000001104272228",
    "source_url": "https://2gis.kz/astana/firm/70000001104272228"
  },
  {
    "chain": "Espresso Day",
    "name": "Espresso Day",
    "address": "Бухар жырау улица, 20",
    "district": "Нура",
    "lat": 51.10348,
    "lng": 71.39976,
    "source": "2GIS snapshot in repository",
    "source_id": "70000001112351768",
    "source_url": "https://2gis.kz/astana/firm/70000001112351768"
  },
  {
    "chain": "Espresso Day",
    "name": "Espresso Day",
    "address": "Бухар жырау улица, 26/1",
    "district": "Есильский",
    "lat": 51.10172,
    "lng": 71.41213,
    "source": "2GIS snapshot in repository",
    "source_id": "70000001112351659",
    "source_url": "https://2gis.kz/astana/firm/70000001112351659"
  },
  {
    "chain": "Espresso Day",
    "name": "Espresso Day",
    "address": "Бухар жырау улица, 27",
    "district": "Есильский",
    "lat": 51.09872,
    "lng": 71.43864,
    "source": "2GIS snapshot in repository",
    "source_id": "70000001083262479",
    "source_url": "https://2gis.kz/astana/firm/70000001083262479"
  },
  {
    "chain": "Espresso Day",
    "name": "Espresso Day",
    "address": "Бухар жырау улица, 28Б",
    "district": "Есильский",
    "lat": 51.10028,
    "lng": 71.41742,
    "source": "2GIS snapshot in repository",
    "source_id": "70000001094239190",
    "source_url": "https://2gis.kz/astana/firm/70000001094239190"
  },
  {
    "chain": "Espresso Day",
    "name": "Espresso Day",
    "address": "Е 117 улица, 38",
    "district": "Есильский",
    "lat": 51.07774,
    "lng": 71.49299,
    "source": "2GIS snapshot in repository",
    "source_id": "70000001097199340",
    "source_url": "https://2gis.kz/astana/firm/70000001097199340"
  },
  {
    "chain": "Espresso Day",
    "name": "Espresso Day",
    "address": "Е-15 улица, 14",
    "district": "Нура",
    "lat": 51.12496,
    "lng": 71.37574,
    "source": "2GIS snapshot in repository",
    "source_id": "70000001099025124",
    "source_url": "https://2gis.kz/astana/firm/70000001099025124"
  },
  {
    "chain": "Espresso Day",
    "name": "Espresso Day",
    "address": "Е-67 улица, 8",
    "district": "Нура",
    "lat": 51.12554,
    "lng": 71.39892,
    "source": "2GIS snapshot in repository",
    "source_id": "70000001103347468",
    "source_url": "https://2gis.kz/astana/firm/70000001103347468"
  },
  {
    "chain": "Espresso Day",
    "name": "Espresso Day",
    "address": "ЖК Алан · проспект Улы Дала, 61",
    "district": "Есильский",
    "lat": 51.09434,
    "lng": 71.4389,
    "source": "2GIS snapshot in repository",
    "source_id": "70000001111052726",
    "source_url": "https://2gis.kz/astana/firm/70000001111052726"
  },
  {
    "chain": "Espresso Day",
    "name": "Espresso Day",
    "address": "ЖК Олимп палас · улица Туркестан, 8/2",
    "district": "Есильский",
    "lat": 51.11577,
    "lng": 71.42847,
    "source": "2GIS snapshot in repository",
    "source_id": "70000001099740521",
    "source_url": "https://2gis.kz/astana/firm/70000001099740521"
  },
  {
    "chain": "Espresso Day",
    "name": "Espresso Day",
    "address": "Кабанбай батыр проспект, 49",
    "district": "Нура",
    "lat": 51.10264,
    "lng": 71.40537,
    "source": "2GIS snapshot in repository",
    "source_id": "70000001114419332",
    "source_url": "https://2gis.kz/astana/firm/70000001114419332"
  },
  {
    "chain": "Espresso Day",
    "name": "Espresso Day",
    "address": "Кабанбай батыр проспект, 53",
    "district": "Нура",
    "lat": 51.09057,
    "lng": 71.39597,
    "source": "2GIS snapshot in repository",
    "source_id": "70000001080140646",
    "source_url": "https://2gis.kz/astana/firm/70000001080140646"
  },
  {
    "chain": "Espresso Day",
    "name": "Espresso Day",
    "address": "Кабанбай батыр проспект, 9/4",
    "district": "Нура",
    "lat": 51.14184,
    "lng": 71.41568,
    "source": "2GIS snapshot in repository",
    "source_id": "70000001114082301",
    "source_url": "https://2gis.kz/astana/firm/70000001114082301"
  },
  {
    "chain": "Espresso Day",
    "name": "Espresso Day",
    "address": "Керей, Жанибек хандар улица, 46",
    "district": "Есильский",
    "lat": 51.10642,
    "lng": 71.44849,
    "source": "2GIS snapshot in repository",
    "source_id": "70000001083233701",
    "source_url": "https://2gis.kz/astana/firm/70000001083233701"
  },
  {
    "chain": "Espresso Day",
    "name": "Espresso Day",
    "address": "Проспект Мангилик Ел, 27",
    "district": "Есильский",
    "lat": 51.10909,
    "lng": 71.43091,
    "source": "2GIS snapshot in repository",
    "source_id": "70000001104889790",
    "source_url": "https://2gis.kz/astana/firm/70000001104889790"
  },
  {
    "chain": "Espresso Day",
    "name": "Espresso Day",
    "address": "Проспект Мангилик Ел, 33/1",
    "district": "Есильский",
    "lat": 51.10667,
    "lng": 71.43028,
    "source": "2GIS snapshot in repository",
    "source_id": "70000001098184916",
    "source_url": "https://2gis.kz/astana/firm/70000001098184916"
  },
  {
    "chain": "Espresso Day",
    "name": "Espresso Day",
    "address": "Проспект Мангилик Ел, 37",
    "district": "Есильский",
    "lat": 51.10327,
    "lng": 71.42907,
    "source": "2GIS snapshot in repository",
    "source_id": "70000001111077365",
    "source_url": "https://2gis.kz/astana/firm/70000001111077365"
  },
  {
    "chain": "Espresso Day",
    "name": "Espresso Day",
    "address": "Проспект Мангилик Ел, 55/1",
    "district": "Есильский",
    "lat": 51.0879,
    "lng": 71.41708,
    "source": "2GIS snapshot in repository",
    "source_id": "70000001084319590",
    "source_url": "https://2gis.kz/astana/firm/70000001084319590"
  },
  {
    "chain": "Espresso Day",
    "name": "Espresso Day",
    "address": "Проспект Мангилик Ел, 55а блок С",
    "district": "Есильский",
    "lat": 51.09099,
    "lng": 71.42416,
    "source": "2GIS snapshot in repository",
    "source_id": "70000001110094768",
    "source_url": "https://2gis.kz/astana/firm/70000001110094768"
  },
  {
    "chain": "Espresso Day",
    "name": "Espresso Day",
    "address": "Проспект Мангилик Ел, 62 Блок Г",
    "district": "Есильский",
    "lat": 51.08448,
    "lng": 71.42365,
    "source": "2GIS snapshot in repository",
    "source_id": "70000001110107355",
    "source_url": "https://2gis.kz/astana/firm/70000001110107355"
  },
  {
    "chain": "Espresso Day",
    "name": "Espresso Day",
    "address": "Проспект Мангилик Ел, 68 Блок B1",
    "district": "Есильский",
    "lat": 51.07463,
    "lng": 71.42011,
    "source": "2GIS snapshot in repository",
    "source_id": "70000001102511634",
    "source_url": "https://2gis.kz/astana/firm/70000001102511634"
  },
  {
    "chain": "Espresso Day",
    "name": "Espresso Day",
    "address": "Проспект Туран, 39/3",
    "district": "Нура",
    "lat": 51.12994,
    "lng": 71.40133,
    "source": "2GIS snapshot in repository",
    "source_id": "70000001110134638",
    "source_url": "https://2gis.kz/astana/firm/70000001110134638"
  },
  {
    "chain": "Espresso Day",
    "name": "Espresso Day",
    "address": "Проспект Туран, 41а",
    "district": "Нура",
    "lat": 51.12561,
    "lng": 71.40314,
    "source": "2GIS snapshot in repository",
    "source_id": "70000001076393958",
    "source_url": "https://2gis.kz/astana/firm/70000001076393958"
  },
  {
    "chain": "Espresso Day",
    "name": "Espresso Day",
    "address": "Проспект Туран, 44/2",
    "district": "Нура",
    "lat": 51.11301,
    "lng": 71.40274,
    "source": "2GIS snapshot in repository",
    "source_id": "70000001101151171",
    "source_url": "https://2gis.kz/astana/firm/70000001101151171"
  },
  {
    "chain": "Espresso Day",
    "name": "Espresso Day",
    "address": "Проспект Туран, 50/3",
    "district": "Нура",
    "lat": 51.10681,
    "lng": 71.40027,
    "source": "2GIS snapshot in repository",
    "source_id": "70000001089519051",
    "source_url": "https://2gis.kz/astana/firm/70000001089519051"
  },
  {
    "chain": "Espresso Day",
    "name": "Espresso Day",
    "address": "Проспект Туран, 55/16",
    "district": "Нура",
    "lat": 51.11509,
    "lng": 71.39162,
    "source": "2GIS snapshot in repository",
    "source_id": "70000001104012802",
    "source_url": "https://2gis.kz/astana/firm/70000001104012802"
  },
  {
    "chain": "Espresso Day",
    "name": "Espresso Day",
    "address": "Проспект Туран, 55/5",
    "district": "Нура",
    "lat": 51.11074,
    "lng": 71.39774,
    "source": "2GIS snapshot in repository",
    "source_id": "70000001102889435",
    "source_url": "https://2gis.kz/astana/firm/70000001102889435"
  },
  {
    "chain": "Espresso Day",
    "name": "Espresso Day",
    "address": "Проспект Туран, 55/8",
    "district": "Нура",
    "lat": 51.11192,
    "lng": 71.39326,
    "source": "2GIS snapshot in repository",
    "source_id": "70000001087418126",
    "source_url": "https://2gis.kz/astana/firm/70000001087418126"
  },
  {
    "chain": "Espresso Day",
    "name": "Espresso Day",
    "address": "Проспект Туран, 57/7",
    "district": "Нура",
    "lat": 51.10714,
    "lng": 71.39476,
    "source": "2GIS snapshot in repository",
    "source_id": "70000001115640670",
    "source_url": "https://2gis.kz/astana/firm/70000001115640670"
  },
  {
    "chain": "Espresso Day",
    "name": "Espresso Day",
    "address": "Проспект Туран, 57а",
    "district": "Нура",
    "lat": 51.10735,
    "lng": 71.39568,
    "source": "2GIS snapshot in repository",
    "source_id": "70000001115598420",
    "source_url": "https://2gis.kz/astana/firm/70000001115598420"
  },
  {
    "chain": "Espresso Day",
    "name": "Espresso Day",
    "address": "Проспект Туран, 57г",
    "district": "Нура",
    "lat": 51.10605,
    "lng": 71.3961,
    "source": "2GIS snapshot in repository",
    "source_id": "70000001090031106",
    "source_url": "https://2gis.kz/astana/firm/70000001090031106"
  },
  {
    "chain": "Espresso Day",
    "name": "Espresso Day",
    "address": "Проспект Улы Дала, 29",
    "district": "Нура",
    "lat": 51.10104,
    "lng": 71.39185,
    "source": "2GIS snapshot in repository",
    "source_id": "70000001084343816",
    "source_url": "https://2gis.kz/astana/firm/70000001084343816"
  },
  {
    "chain": "Espresso Day",
    "name": "Espresso Day",
    "address": "Проспект Улы Дала, 33",
    "district": "Нура",
    "lat": 51.0998,
    "lng": 71.40107,
    "source": "2GIS snapshot in repository",
    "source_id": "70000001094239215",
    "source_url": "https://2gis.kz/astana/firm/70000001094239215"
  },
  {
    "chain": "Espresso Day",
    "name": "Espresso Day",
    "address": "ТРЦ MEGA Silk Way · Кабанбай батыр проспект, 62",
    "district": "Есильский",
    "lat": 51.08866,
    "lng": 71.40981,
    "source": "2GIS snapshot in repository",
    "source_id": "70000001077221679",
    "source_url": "https://2gis.kz/astana/firm/70000001077221679"
  },
  {
    "chain": "Espresso Day",
    "name": "Espresso Day",
    "address": "ТРЦ Аружан · улица Илияса Жансугурова, 8/1",
    "district": "Алматинский",
    "lat": 51.16015,
    "lng": 71.48293,
    "source": "2GIS snapshot in repository",
    "source_id": "70000001104267298",
    "source_url": "https://2gis.kz/astana/firm/70000001104267298"
  },
  {
    "chain": "Espresso Day",
    "name": "Espresso Day",
    "address": "ТРЦ Сарыарка · проспект Туран, 24",
    "district": "Нура",
    "lat": 51.13858,
    "lng": 71.40982,
    "source": "2GIS snapshot in repository",
    "source_id": "70000001088846231",
    "source_url": "https://2gis.kz/astana/firm/70000001088846231"
  },
  {
    "chain": "Espresso Day",
    "name": "Espresso Day",
    "address": "Улица А 52, 4",
    "district": "Сарайшык",
    "lat": 51.10557,
    "lng": 71.51024,
    "source": "2GIS snapshot in repository",
    "source_id": "70000001113474931",
    "source_url": "https://2gis.kz/astana/firm/70000001113474931"
  },
  {
    "chain": "Espresso Day",
    "name": "Espresso Day",
    "address": "Улица Абикен Бектуров, 9",
    "district": "Нура",
    "lat": 51.12223,
    "lng": 71.39775,
    "source": "2GIS snapshot in repository",
    "source_id": "70000001093421006",
    "source_url": "https://2gis.kz/astana/firm/70000001093421006"
  },
  {
    "chain": "Espresso Day",
    "name": "Espresso Day",
    "address": "Улица Азербайжана Мамбетова, 22",
    "district": "Сарыарка",
    "lat": 51.16407,
    "lng": 71.42368,
    "source": "2GIS snapshot in repository",
    "source_id": "70000001114279413",
    "source_url": "https://2gis.kz/astana/firm/70000001114279413"
  },
  {
    "chain": "Espresso Day",
    "name": "Espresso Day",
    "address": "Улица Азильхан Нуршаихов, 6",
    "district": "Нура",
    "lat": 51.13038,
    "lng": 71.36213,
    "source": "2GIS snapshot in repository",
    "source_id": "70000001110094721",
    "source_url": "https://2gis.kz/astana/firm/70000001110094721"
  },
  {
    "chain": "Espresso Day",
    "name": "Espresso Day",
    "address": "Улица Акмешит, 1 блок В",
    "district": "Есильский",
    "lat": 51.11954,
    "lng": 71.42468,
    "source": "2GIS snapshot in repository",
    "source_id": "70000001103156650",
    "source_url": "https://2gis.kz/astana/firm/70000001103156650"
  },
  {
    "chain": "Espresso Day",
    "name": "Espresso Day",
    "address": "Улица Акмешит, 13",
    "district": "Есильский",
    "lat": 51.11223,
    "lng": 71.42198,
    "source": "2GIS snapshot in repository",
    "source_id": "70000001080139494",
    "source_url": "https://2gis.kz/astana/firm/70000001080139494"
  },
  {
    "chain": "Espresso Day",
    "name": "Espresso Day",
    "address": "Улица Александра Пушкина, 1",
    "district": "Байконур",
    "lat": 51.15591,
    "lng": 71.45357,
    "source": "2GIS snapshot in repository",
    "source_id": "70000001101556223",
    "source_url": "https://2gis.kz/astana/firm/70000001101556223"
  },
  {
    "chain": "Espresso Day",
    "name": "Espresso Day",
    "address": "Улица Алихан Бокейхан, 16",
    "district": "Есильский",
    "lat": 51.108,
    "lng": 71.43455,
    "source": "2GIS snapshot in repository",
    "source_id": "70000001080139505",
    "source_url": "https://2gis.kz/astana/firm/70000001080139505"
  },
  {
    "chain": "Espresso Day",
    "name": "Espresso Day",
    "address": "Улица Алихан Бокейхан, 16/2",
    "district": "Есильский",
    "lat": 51.10579,
    "lng": 71.43416,
    "source": "2GIS snapshot in repository",
    "source_id": "70000001100594179",
    "source_url": "https://2gis.kz/astana/firm/70000001100594179"
  },
  {
    "chain": "Espresso Day",
    "name": "Espresso Day",
    "address": "Улица Анет баба, 11/3",
    "district": "Нура",
    "lat": 51.13928,
    "lng": 71.38178,
    "source": "2GIS snapshot in repository",
    "source_id": "70000001103338544",
    "source_url": "https://2gis.kz/astana/firm/70000001103338544"
  },
  {
    "chain": "Espresso Day",
    "name": "Espresso Day",
    "address": "Улица Анет баба, 8",
    "district": "Нура",
    "lat": 51.13581,
    "lng": 71.38518,
    "source": "2GIS snapshot in repository",
    "source_id": "70000001096814152",
    "source_url": "https://2gis.kz/astana/firm/70000001096814152"
  },
  {
    "chain": "Espresso Day",
    "name": "Espresso Day",
    "address": "Улица Ахмет Байтурсынулы, 32",
    "district": "Сарайшык",
    "lat": 51.11538,
    "lng": 71.5258,
    "source": "2GIS snapshot in repository",
    "source_id": "70000001114687961",
    "source_url": "https://2gis.kz/astana/firm/70000001114687961"
  },
  {
    "chain": "Espresso Day",
    "name": "Espresso Day",
    "address": "Улица Достык, 2",
    "district": "Нура",
    "lat": 51.1282,
    "lng": 71.40751,
    "source": "2GIS snapshot in repository",
    "source_id": "70000001090031093",
    "source_url": "https://2gis.kz/astana/firm/70000001090031093"
  },
  {
    "chain": "Espresso Day",
    "name": "Espresso Day",
    "address": "Улица Е 669, 4",
    "district": "Есильский",
    "lat": 51.08794,
    "lng": 71.46959,
    "source": "2GIS snapshot in repository",
    "source_id": "70000001100210984",
    "source_url": "https://2gis.kz/astana/firm/70000001100210984"
  },
  {
    "chain": "Espresso Day",
    "name": "Espresso Day",
    "address": "Улица Е 882, 7",
    "district": "Нура",
    "lat": 51.16422,
    "lng": 71.38942,
    "source": "2GIS snapshot in repository",
    "source_id": "70000001113896183",
    "source_url": "https://2gis.kz/astana/firm/70000001113896183"
  },
  {
    "chain": "Espresso Day",
    "name": "Espresso Day",
    "address": "Улица Е 900, 6",
    "district": "Нура",
    "lat": 51.13449,
    "lng": 71.39514,
    "source": "2GIS snapshot in repository",
    "source_id": "70000001105387237",
    "source_url": "https://2gis.kz/astana/firm/70000001105387237"
  },
  {
    "chain": "Espresso Day",
    "name": "Espresso Day",
    "address": "Улица Е-321, 6",
    "district": "Есильский",
    "lat": 51.06353,
    "lng": 71.42422,
    "source": "2GIS snapshot in repository",
    "source_id": "70000001112351583",
    "source_url": "https://2gis.kz/astana/firm/70000001112351583"
  },
  {
    "chain": "Espresso Day",
    "name": "Espresso Day",
    "address": "Улица Е-36, 2/1",
    "district": "Нура",
    "lat": 51.12456,
    "lng": 71.38101,
    "source": "2GIS snapshot in repository",
    "source_id": "70000001097199348",
    "source_url": "https://2gis.kz/astana/firm/70000001097199348"
  },
  {
    "chain": "Espresso Day",
    "name": "Espresso Day",
    "address": "Улица Е-429, 24",
    "district": "Нура",
    "lat": 51.13213,
    "lng": 71.35882,
    "source": "2GIS snapshot in repository",
    "source_id": "70000001113191185",
    "source_url": "https://2gis.kz/astana/firm/70000001113191185"
  },
  {
    "chain": "Espresso Day",
    "name": "Espresso Day",
    "address": "Улица Е-899, 1/1",
    "district": "Нура",
    "lat": 51.132,
    "lng": 71.38768,
    "source": "2GIS snapshot in repository",
    "source_id": "70000001078554732",
    "source_url": "https://2gis.kz/astana/firm/70000001078554732"
  },
  {
    "chain": "Espresso Day",
    "name": "Espresso Day",
    "address": "Улица Е-899, 5/3",
    "district": "Нура",
    "lat": 51.13819,
    "lng": 71.38839,
    "source": "2GIS snapshot in repository",
    "source_id": "70000001105387339",
    "source_url": "https://2gis.kz/astana/firm/70000001105387339"
  },
  {
    "chain": "Espresso Day",
    "name": "Espresso Day",
    "address": "Улица Желтоксан, 3а киоск",
    "district": "Сарыарка",
    "lat": 51.16119,
    "lng": 71.4205,
    "source": "2GIS snapshot in repository",
    "source_id": "70000001112351788",
    "source_url": "https://2gis.kz/astana/firm/70000001112351788"
  },
  {
    "chain": "Espresso Day",
    "name": "Espresso Day",
    "address": "Улица Жошы хан, 16/1",
    "district": "Есильский",
    "lat": 51.10362,
    "lng": 71.44343,
    "source": "2GIS snapshot in repository",
    "source_id": "70000001104890038",
    "source_url": "https://2gis.kz/astana/firm/70000001104890038"
  },
  {
    "chain": "Espresso Day",
    "name": "Espresso Day",
    "address": "Улица Жубан Молдагалиев, 5",
    "district": "Нура",
    "lat": 51.12592,
    "lng": 71.36616,
    "source": "2GIS snapshot in repository",
    "source_id": "70000001094239246",
    "source_url": "https://2gis.kz/astana/firm/70000001094239246"
  },
  {
    "chain": "Espresso Day",
    "name": "Espresso Day",
    "address": "Улица Жумекен Нажимеденов, 7",
    "district": "Сарайшык",
    "lat": 51.11505,
    "lng": 71.50205,
    "source": "2GIS snapshot in repository",
    "source_id": "70000001096817045",
    "source_url": "https://2gis.kz/astana/firm/70000001096817045"
  },
  {
    "chain": "Espresso Day",
    "name": "Espresso Day",
    "address": "Улица Илияс Омаров, 19",
    "district": "Нура",
    "lat": 51.13709,
    "lng": 71.36889,
    "source": "2GIS snapshot in repository",
    "source_id": "70000001080836060",
    "source_url": "https://2gis.kz/astana/firm/70000001080836060"
  },
  {
    "chain": "Espresso Day",
    "name": "Espresso Day",
    "address": "Улица Илияс Омаров, 27/1",
    "district": "Нура",
    "lat": 51.14271,
    "lng": 71.36981,
    "source": "2GIS snapshot in repository",
    "source_id": "70000001075103853",
    "source_url": "https://2gis.kz/astana/firm/70000001075103853"
  },
  {
    "chain": "Espresso Day",
    "name": "Espresso Day",
    "address": "Улица Кайым Мухамедханов, 12",
    "district": "Нура",
    "lat": 51.141,
    "lng": 71.37975,
    "source": "2GIS snapshot in repository",
    "source_id": "70000001080139538",
    "source_url": "https://2gis.kz/astana/firm/70000001080139538"
  },
  {
    "chain": "Espresso Day",
    "name": "Espresso Day",
    "address": "Улица Касым Кайсенов, 6",
    "district": "Есильский",
    "lat": 51.09736,
    "lng": 71.44472,
    "source": "2GIS snapshot in repository",
    "source_id": "70000001098185329",
    "source_url": "https://2gis.kz/astana/firm/70000001098185329"
  },
  {
    "chain": "Espresso Day",
    "name": "Espresso Day",
    "address": "Улица Максут Нарикбаев, 14",
    "district": "Нура",
    "lat": 51.14431,
    "lng": 71.38513,
    "source": "2GIS snapshot in repository",
    "source_id": "70000001096806724",
    "source_url": "https://2gis.kz/astana/firm/70000001096806724"
  },
  {
    "chain": "Espresso Day",
    "name": "Espresso Day",
    "address": "Улица Максут Нарикбаев, 2",
    "district": "Нура",
    "lat": 51.13982,
    "lng": 71.39282,
    "source": "2GIS snapshot in repository",
    "source_id": "70000001080779013",
    "source_url": "https://2gis.kz/astana/firm/70000001080779013"
  },
  {
    "chain": "Espresso Day",
    "name": "Espresso Day",
    "address": "Улица Санжара Асфендиярова, 1",
    "district": "Нура",
    "lat": 51.13202,
    "lng": 71.37546,
    "source": "2GIS snapshot in repository",
    "source_id": "70000001097199344",
    "source_url": "https://2gis.kz/astana/firm/70000001097199344"
  },
  {
    "chain": "Espresso Day",
    "name": "Espresso Day",
    "address": "Улица Санжара Асфендиярова, 12",
    "district": "Нура",
    "lat": 51.13629,
    "lng": 71.37714,
    "source": "2GIS snapshot in repository",
    "source_id": "70000001103400178",
    "source_url": "https://2gis.kz/astana/firm/70000001103400178"
  },
  {
    "chain": "Espresso Day",
    "name": "Espresso Day",
    "address": "Улица Сыганак, 12",
    "district": "Нура",
    "lat": 51.13045,
    "lng": 71.3722,
    "source": "2GIS snapshot in repository",
    "source_id": "70000001114419215",
    "source_url": "https://2gis.kz/astana/firm/70000001114419215"
  },
  {
    "chain": "Espresso Day",
    "name": "Espresso Day",
    "address": "Улица Сыганак, 38/1",
    "district": "Нура",
    "lat": 51.12712,
    "lng": 71.39849,
    "source": "2GIS snapshot in repository",
    "source_id": "70000001104223101",
    "source_url": "https://2gis.kz/astana/firm/70000001104223101"
  },
  {
    "chain": "Espresso Day",
    "name": "Espresso Day",
    "address": "Улица Сыганак, 42",
    "district": "Нура",
    "lat": 51.12684,
    "lng": 71.4004,
    "source": "2GIS snapshot in repository",
    "source_id": "70000001105126775",
    "source_url": "https://2gis.kz/astana/firm/70000001105126775"
  },
  {
    "chain": "Espresso Day",
    "name": "Espresso Day",
    "address": "Улица Толе би, 16",
    "district": "Нура",
    "lat": 51.10007,
    "lng": 71.38835,
    "source": "2GIS snapshot in repository",
    "source_id": "70000001091239612",
    "source_url": "https://2gis.kz/astana/firm/70000001091239612"
  },
  {
    "chain": "Espresso Day",
    "name": "Espresso Day",
    "address": "Улица Толе би, 51",
    "district": "Нура",
    "lat": 51.12397,
    "lng": 71.39394,
    "source": "2GIS snapshot in repository",
    "source_id": "70000001091239613",
    "source_url": "https://2gis.kz/astana/firm/70000001091239613"
  },
  {
    "chain": "Espresso Day",
    "name": "Espresso Day",
    "address": "Улица Толе би, 65",
    "district": "Нура",
    "lat": 51.13632,
    "lng": 71.39733,
    "source": "2GIS snapshot in repository",
    "source_id": "70000001088846234",
    "source_url": "https://2gis.kz/astana/firm/70000001088846234"
  },
  {
    "chain": "Espresso Day",
    "name": "Espresso Day",
    "address": "Улица Турар Рыскулов, 16/4",
    "district": "Есильский",
    "lat": 51.07986,
    "lng": 71.43036,
    "source": "2GIS snapshot in repository",
    "source_id": "70000001110144180",
    "source_url": "https://2gis.kz/astana/firm/70000001110144180"
  },
  {
    "chain": "Espresso Day",
    "name": "Espresso Day",
    "address": "Улица Турар Рыскулов, 3",
    "district": "Есильский",
    "lat": 51.0862,
    "lng": 71.40793,
    "source": "2GIS snapshot in repository",
    "source_id": "70000001114363966",
    "source_url": "https://2gis.kz/astana/firm/70000001114363966"
  },
  {
    "chain": "Espresso Day",
    "name": "Espresso Day",
    "address": "Улица Турар Рыскулов, 9а",
    "district": "Есильский",
    "lat": 51.0852,
    "lng": 71.42029,
    "source": "2GIS snapshot in repository",
    "source_id": "70000001103738482",
    "source_url": "https://2gis.kz/astana/firm/70000001103738482"
  },
  {
    "chain": "Espresso Day",
    "name": "Espresso Day",
    "address": "Улица Туркестан, 16",
    "district": "Есильский",
    "lat": 51.10693,
    "lng": 71.42488,
    "source": "2GIS snapshot in repository",
    "source_id": "70000001113475084",
    "source_url": "https://2gis.kz/astana/firm/70000001113475084"
  },
  {
    "chain": "Espresso Day",
    "name": "Espresso Day",
    "address": "Улица Туркестан, 16/5",
    "district": "Есильский",
    "lat": 51.10535,
    "lng": 71.42655,
    "source": "2GIS snapshot in repository",
    "source_id": "70000001084319645",
    "source_url": "https://2gis.kz/astana/firm/70000001084319645"
  },
  {
    "chain": "Espresso Day",
    "name": "Espresso Day",
    "address": "Улица Туркестан, 18/1",
    "district": "Есильский",
    "lat": 51.10434,
    "lng": 71.42565,
    "source": "2GIS snapshot in repository",
    "source_id": "70000001115190369",
    "source_url": "https://2gis.kz/astana/firm/70000001115190369"
  },
  {
    "chain": "Espresso Day",
    "name": "Espresso Day",
    "address": "Улица Чингиз Айтматов, 79",
    "district": "Сарыарка",
    "lat": 51.16762,
    "lng": 71.37441,
    "source": "2GIS snapshot in repository",
    "source_id": "70000001113474970",
    "source_url": "https://2gis.kz/astana/firm/70000001113474970"
  },
  {
    "chain": "Espresso Day",
    "name": "Espresso Day",
    "address": "Улица Шамши Калдаяков, 14",
    "district": "Сарайшык",
    "lat": 51.11528,
    "lng": 71.4766,
    "source": "2GIS snapshot in repository",
    "source_id": "70000001114419352",
    "source_url": "https://2gis.kz/astana/firm/70000001114419352"
  },
  {
    "chain": "Espresso Day",
    "name": "Espresso Day",
    "address": "Улица Шамши Калдаяков, 23/2",
    "district": "Сарайшык",
    "lat": 51.11422,
    "lng": 71.48901,
    "source": "2GIS snapshot in repository",
    "source_id": "70000001115651351",
    "source_url": "https://2gis.kz/astana/firm/70000001115651351"
  },
  {
    "chain": "Espresso Day",
    "name": "Espresso Day",
    "address": "Шоссе Коргалжын, 13Б",
    "district": "Нура",
    "lat": 51.14786,
    "lng": 71.38587,
    "source": "2GIS snapshot in repository",
    "source_id": "70000001112351561",
    "source_url": "https://2gis.kz/astana/firm/70000001112351561"
  },
  {
    "chain": "Espresso Day",
    "name": "Espresso Day",
    "address": "Шоссе Коргалжын, 3",
    "district": "Нура",
    "lat": 51.14543,
    "lng": 71.40702,
    "source": "2GIS snapshot in repository",
    "source_id": "70000001088274564",
    "source_url": "https://2gis.kz/astana/firm/70000001088274564"
  },
  {
    "chain": "Zebra Coffee",
    "name": "Zebra Coffee",
    "address": "Аль-Фараби проспект, 11/1",
    "district": "Есильский",
    "lat": 51.09723,
    "lng": 71.44912,
    "source": "2GIS snapshot in repository",
    "source_id": "70000001076564440",
    "source_url": "https://2gis.kz/astana/firm/70000001076564440"
  },
  {
    "chain": "Zebra Coffee",
    "name": "Zebra Coffee",
    "address": "Амангельды Иманова улица, 3/1в киоск",
    "district": "Байконур",
    "lat": 51.16334,
    "lng": 71.43085,
    "source": "2GIS snapshot in repository",
    "source_id": "70000001059959174",
    "source_url": "https://2gis.kz/astana/firm/70000001059959174"
  },
  {
    "chain": "Zebra Coffee",
    "name": "Zebra Coffee",
    "address": "Деловой дом Алма-Ата | Амангельды Иманова улица, 19",
    "district": "Байконур",
    "lat": 51.16459,
    "lng": 71.44233,
    "source": "2GIS snapshot in repository",
    "source_id": "70000001106066559",
    "source_url": "https://2gis.kz/astana/firm/70000001106066559"
  },
  {
    "chain": "Zebra Coffee",
    "name": "Zebra Coffee",
    "address": "ЖК Park Avenue-1 | проспект Мангилик Ел, 39",
    "district": "Есильский",
    "lat": 51.10267,
    "lng": 71.42879,
    "source": "2GIS snapshot in repository",
    "source_id": "70000001039693059",
    "source_url": "https://2gis.kz/astana/firm/70000001039693059"
  },
  {
    "chain": "Zebra Coffee",
    "name": "Zebra Coffee",
    "address": "Кабанбай батыр проспект, 13",
    "district": "Нура",
    "lat": 51.13792,
    "lng": 71.41548,
    "source": "2GIS snapshot in repository",
    "source_id": "70000001060592523",
    "source_url": "https://2gis.kz/astana/firm/70000001060592523"
  },
  {
    "chain": "Zebra Coffee",
    "name": "Zebra Coffee",
    "address": "Проспект Абая, 42",
    "district": "Байконур",
    "lat": 51.16924,
    "lng": 71.43559,
    "source": "2GIS snapshot in repository",
    "source_id": "70000001104446204",
    "source_url": "https://2gis.kz/astana/firm/70000001104446204"
  },
  {
    "chain": "Zebra Coffee",
    "name": "Zebra Coffee",
    "address": "Проспект Женис, 63",
    "district": "Сарыарка",
    "lat": 51.18361,
    "lng": 71.40831,
    "source": "2GIS snapshot in repository",
    "source_id": "70000001103106363",
    "source_url": "https://2gis.kz/astana/firm/70000001103106363"
  },
  {
    "chain": "Zebra Coffee",
    "name": "Zebra Coffee",
    "address": "Проспект Мангилик Ел, 37",
    "district": "Есильский",
    "lat": 51.10375,
    "lng": 71.42871,
    "source": "2GIS snapshot in repository",
    "source_id": "70000001067951051",
    "source_url": "https://2gis.kz/astana/firm/70000001067951051"
  },
  {
    "chain": "Zebra Coffee",
    "name": "Zebra Coffee",
    "address": "Проспект Мангилик Ел, 55/1",
    "district": "Есильский",
    "lat": 51.08743,
    "lng": 71.41681,
    "source": "2GIS snapshot in repository",
    "source_id": "70000001047480144",
    "source_url": "https://2gis.kz/astana/firm/70000001047480144"
  },
  {
    "chain": "Zebra Coffee",
    "name": "Zebra Coffee",
    "address": "Проспект Мангилик Ел, 55/1",
    "district": "Есильский",
    "lat": 51.08759,
    "lng": 71.41465,
    "source": "2GIS snapshot in repository",
    "source_id": "70000001041959959",
    "source_url": "https://2gis.kz/astana/firm/70000001041959959"
  },
  {
    "chain": "Zebra Coffee",
    "name": "Zebra Coffee",
    "address": "Проспект Мангилик Ел, 56",
    "district": "Есильский",
    "lat": 51.08853,
    "lng": 71.42513,
    "source": "2GIS snapshot in repository",
    "source_id": "70000001050680764",
    "source_url": "https://2gis.kz/astana/firm/70000001050680764"
  },
  {
    "chain": "Zebra Coffee",
    "name": "Zebra Coffee",
    "address": "Проспект Ракымжан Кошкарбаев, 54/1",
    "district": "Сарайшык",
    "lat": 51.12935,
    "lng": 71.50141,
    "source": "2GIS snapshot in repository",
    "source_id": "70000001110002143",
    "source_url": "https://2gis.kz/astana/firm/70000001110002143"
  },
  {
    "chain": "Zebra Coffee",
    "name": "Zebra Coffee",
    "address": "Проспект Республики, 7",
    "district": "Сарыарка",
    "lat": 51.16028,
    "lng": 71.4283,
    "source": "2GIS snapshot in repository",
    "source_id": "70000001079664220",
    "source_url": "https://2gis.kz/astana/firm/70000001079664220"
  },
  {
    "chain": "Zebra Coffee",
    "name": "Zebra Coffee",
    "address": "Проспект Тауелсиздик, 34/5 киоск",
    "district": "Алматинский",
    "lat": 51.14142,
    "lng": 71.46557,
    "source": "2GIS snapshot in repository",
    "source_id": "70000001060684766",
    "source_url": "https://2gis.kz/astana/firm/70000001060684766"
  },
  {
    "chain": "Zebra Coffee",
    "name": "Zebra Coffee",
    "address": "Проспект Туран, 39а",
    "district": "Нура",
    "lat": 51.12798,
    "lng": 71.40418,
    "source": "2GIS snapshot in repository",
    "source_id": "70000001090887015",
    "source_url": "https://2gis.kz/astana/firm/70000001090887015"
  },
  {
    "chain": "Zebra Coffee",
    "name": "Zebra Coffee",
    "address": "Проспект Туран, 43/3",
    "district": "Нура",
    "lat": 51.12517,
    "lng": 71.39952,
    "source": "2GIS snapshot in repository",
    "source_id": "70000001089072457",
    "source_url": "https://2gis.kz/astana/firm/70000001089072457"
  },
  {
    "chain": "Zebra Coffee",
    "name": "Zebra Coffee",
    "address": "Проспект Улы Дала, 63",
    "district": "Есильский",
    "lat": 51.09396,
    "lng": 71.44101,
    "source": "2GIS snapshot in repository",
    "source_id": "70000001100877765",
    "source_url": "https://2gis.kz/astana/firm/70000001100877765"
  },
  {
    "chain": "Zebra Coffee",
    "name": "Zebra Coffee",
    "address": "Проспект Улы Дала, 71",
    "district": "Есильский",
    "lat": 51.09347,
    "lng": 71.44941,
    "source": "2GIS snapshot in repository",
    "source_id": "70000001066331460",
    "source_url": "https://2gis.kz/astana/firm/70000001066331460"
  },
  {
    "chain": "Zebra Coffee",
    "name": "Zebra Coffee",
    "address": "ТРЦ Asia park | Кабанбай батыр проспект, 21",
    "district": "Нура",
    "lat": 51.12809,
    "lng": 71.41108,
    "source": "2GIS snapshot in repository",
    "source_id": "70000001065290502",
    "source_url": "https://2gis.kz/astana/firm/70000001065290502"
  },
  {
    "chain": "Zebra Coffee",
    "name": "Zebra Coffee",
    "address": "ТРЦ Аружан | Илияса Жансугурова улица, 8/1",
    "district": "Алматинский",
    "lat": 51.15994,
    "lng": 71.48194,
    "source": "2GIS snapshot in repository",
    "source_id": "70000001103902161",
    "source_url": "https://2gis.kz/astana/firm/70000001103902161"
  },
  {
    "chain": "Zebra Coffee",
    "name": "Zebra Coffee",
    "address": "ТЦ Жаннур | проспект Абая, 48",
    "district": "Байконур",
    "lat": 51.16954,
    "lng": 71.44062,
    "source": "2GIS snapshot in repository",
    "source_id": "70000001105217935",
    "source_url": "https://2gis.kz/astana/firm/70000001105217935"
  },
  {
    "chain": "Zebra Coffee",
    "name": "Zebra Coffee",
    "address": "Улица Абубакир Тыныбаев, 18",
    "district": "Сарайшык",
    "lat": 51.11317,
    "lng": 71.46385,
    "source": "2GIS snapshot in repository",
    "source_id": "70000001080449423",
    "source_url": "https://2gis.kz/astana/firm/70000001080449423"
  },
  {
    "chain": "Zebra Coffee",
    "name": "Zebra Coffee",
    "address": "Улица Аскар Токпанов, 22а",
    "district": "Алматинский",
    "lat": 51.14315,
    "lng": 71.45535,
    "source": "2GIS snapshot in repository",
    "source_id": "70000001084025319",
    "source_url": "https://2gis.kz/astana/firm/70000001084025319"
  },
  {
    "chain": "Zebra Coffee",
    "name": "Zebra Coffee",
    "address": "Улица Ахмет Байтурсынулы, 16",
    "district": "Сарайшык",
    "lat": 51.1179,
    "lng": 71.51014,
    "source": "2GIS snapshot in repository",
    "source_id": "70000001080449388",
    "source_url": "https://2gis.kz/astana/firm/70000001080449388"
  },
  {
    "chain": "Zebra Coffee",
    "name": "Zebra Coffee",
    "address": "Улица Бейбарыс Султан, 31",
    "district": "Сарыарка",
    "lat": 51.17465,
    "lng": 71.35235,
    "source": "2GIS snapshot in repository",
    "source_id": "70000001112782830",
    "source_url": "https://2gis.kz/astana/firm/70000001112782830"
  },
  {
    "chain": "Zebra Coffee",
    "name": "Zebra Coffee",
    "address": "Улица Е 900, 2",
    "district": "Нура",
    "lat": 51.13212,
    "lng": 71.39322,
    "source": "2GIS snapshot in repository",
    "source_id": "70000001070114789",
    "source_url": "https://2gis.kz/astana/firm/70000001070114789"
  },
  {
    "chain": "Zebra Coffee",
    "name": "Zebra Coffee",
    "address": "Улица Е-36, 4",
    "district": "Нура",
    "lat": 51.12352,
    "lng": 71.38076,
    "source": "2GIS snapshot in repository",
    "source_id": "70000001103351465",
    "source_url": "https://2gis.kz/astana/firm/70000001103351465"
  },
  {
    "chain": "Zebra Coffee",
    "name": "Zebra Coffee",
    "address": "Улица Жумекен Нажимеденов, 27",
    "district": "Сарайшык",
    "lat": 51.11179,
    "lng": 71.52235,
    "source": "2GIS snapshot in repository",
    "source_id": "70000001099743613",
    "source_url": "https://2gis.kz/astana/firm/70000001099743613"
  },
  {
    "chain": "Zebra Coffee",
    "name": "Zebra Coffee",
    "address": "Улица Жумекен Нажимеденов, 28",
    "district": "Сарайшык",
    "lat": 51.11561,
    "lng": 71.49379,
    "source": "2GIS snapshot in repository",
    "source_id": "70000001106066512",
    "source_url": "https://2gis.kz/astana/firm/70000001106066512"
  },
  {
    "chain": "Zebra Coffee",
    "name": "Zebra Coffee",
    "address": "Улица Илияс Омаров, 12в",
    "district": "Нура",
    "lat": 51.13915,
    "lng": 71.37044,
    "source": "2GIS snapshot in repository",
    "source_id": "70000001094177735",
    "source_url": "https://2gis.kz/astana/firm/70000001094177735"
  },
  {
    "chain": "Zebra Coffee",
    "name": "Zebra Coffee",
    "address": "Улица Кайым Мухамедханов, 4 блок А",
    "district": "Нура",
    "lat": 51.13765,
    "lng": 71.40072,
    "source": "2GIS snapshot in repository",
    "source_id": "70000001086867699",
    "source_url": "https://2gis.kz/astana/firm/70000001086867699"
  },
  {
    "chain": "Zebra Coffee",
    "name": "Zebra Coffee",
    "address": "Улица Калибек Куанышбаев, 11а",
    "district": "Сарайшык",
    "lat": 51.12084,
    "lng": 71.47613,
    "source": "2GIS snapshot in repository",
    "source_id": "70000001080966083",
    "source_url": "https://2gis.kz/astana/firm/70000001080966083"
  },
  {
    "chain": "Zebra Coffee",
    "name": "Zebra Coffee",
    "address": "Улица Кенжебек Кумисбеков, 11",
    "district": "Сарыарка",
    "lat": 51.1721,
    "lng": 71.39748,
    "source": "2GIS snapshot in repository",
    "source_id": "70000001080220312",
    "source_url": "https://2gis.kz/astana/firm/70000001080220312"
  },
  {
    "chain": "Zebra Coffee",
    "name": "Zebra Coffee",
    "address": "Улица Розы Баглановой, 6/3",
    "district": "Нура",
    "lat": 51.11671,
    "lng": 71.39199,
    "source": "2GIS snapshot in repository",
    "source_id": "70000001089455270",
    "source_url": "https://2gis.kz/astana/firm/70000001089455270"
  },
  {
    "chain": "Zebra Coffee",
    "name": "Zebra Coffee",
    "address": "Улица Санжара Асфендиярова, 1",
    "district": "Нура",
    "lat": 51.13109,
    "lng": 71.3762,
    "source": "2GIS snapshot in repository",
    "source_id": "70000001062846328",
    "source_url": "https://2gis.kz/astana/firm/70000001062846328"
  },
  {
    "chain": "Zebra Coffee",
    "name": "Zebra Coffee",
    "address": "Улица Сыганак, 48",
    "district": "Нура",
    "lat": 51.12577,
    "lng": 71.40976,
    "source": "2GIS snapshot in repository",
    "source_id": "70000001070115192",
    "source_url": "https://2gis.kz/astana/firm/70000001070115192"
  },
  {
    "chain": "Zebra Coffee",
    "name": "Zebra Coffee",
    "address": "Улица Сыганак, 6",
    "district": "Нура",
    "lat": 51.13063,
    "lng": 71.37085,
    "source": "2GIS snapshot in repository",
    "source_id": "70000001060702334",
    "source_url": "https://2gis.kz/astana/firm/70000001060702334"
  },
  {
    "chain": "Zebra Coffee",
    "name": "Zebra Coffee",
    "address": "Улица Туркестан, 28",
    "district": "Есильский",
    "lat": 51.10171,
    "lng": 71.42301,
    "source": "2GIS snapshot in repository",
    "source_id": "70000001089535650",
    "source_url": "https://2gis.kz/astana/firm/70000001089535650"
  },
  {
    "chain": "Zebra Coffee",
    "name": "Zebra Coffee",
    "address": "Улица Чингиз Айтматов, 79",
    "district": "Сарыарка",
    "lat": 51.16763,
    "lng": 71.37479,
    "source": "2GIS snapshot in repository",
    "source_id": "70000001113807068",
    "source_url": "https://2gis.kz/astana/firm/70000001113807068"
  },
  {
    "chain": "Zebra Coffee",
    "name": "Zebra Coffee",
    "address": "Улица Шамши Калдаяков, 12",
    "district": "Сарайшык",
    "lat": 51.11564,
    "lng": 71.4743,
    "source": "2GIS snapshot in repository",
    "source_id": "70000001112774775",
    "source_url": "https://2gis.kz/astana/firm/70000001112774775"
  },
  {
    "chain": "Zebra Coffee",
    "name": "Zebra Coffee",
    "address": "Улица Шамши Калдаяков, 23а",
    "district": "Сарайшык",
    "lat": 51.11673,
    "lng": 71.48481,
    "source": "2GIS snapshot in repository",
    "source_id": "70000001090887061",
    "source_url": "https://2gis.kz/astana/firm/70000001090887061"
  }
]
